City_ID,City,Lat,Lng,Max Temp,Humidity,Cloudiness,Wind Speed,Country,Date
0,margaret river,-33.95,115.0667,13.34,65,75,3.45,AU,1691132070
1,al hilaliyya,14.9398,33.234,30.37,54,81,6.11,SD,1691132576
2,mont-dore,-22.2833,166.5833,20.56,99,100,6.82,NC,1691132576
3,emerald,-23.5333,148.1667,24.08,32,0,4.99,AU,1691132577
4,kodiak,57.79,-152.4072,12.73,88,75,0.0,US,1691132082
5,bumba,2.1833,22.4667,23.8,87,100,1.96,CD,1691132577
6,kone,-21.0595,164.8658,18.8,78,90,3.06,NC,1691132064
7,victoria falls,-17.9235,25.843,17.04,42,0,4.29,ZW,1691132578
8,stolin,51.8912,26.846,21.06,68,91,2.86,BY,1691132579
9,castillos,-34.1667,-53.8333,10.09,65,100,0.93,UY,1691132257
10,atafu village,-8.5421,-172.5159,28.49,69,100,5.49,TK,1691132100
11,ribeira brava,32.65,-17.0667,23.34,81,46,3.51,PT,1691132580
12,constantia,44.1833,28.65,26.38,61,0,4.65,RO,1691132129
13,adamstown,-25.066,-130.1015,19.23,78,100,4.55,PN,1691132033
14,bethel,41.3712,-73.414,22.2,78,75,3.6,US,1691132042
15,happy valley-goose bay,53.3168,-60.3315,16.17,72,75,0.0,CA,1691132248
16,port-aux-francais,-49.35,70.2167,2.58,88,70,14.48,TF,1691132044
17,ust'-kulom,61.6864,53.6902,27.57,43,7,0.38,RU,1691132582
18,itaituba,-4.2761,-55.9836,22.71,71,9,0.2,BR,1691132474
19,pisco,-13.7,-76.2167,14.03,88,13,2.57,PE,1691132583
20,mugia,43.1041,-9.2179,17.97,73,59,6.76,ES,1691132044
21,papatowai,-46.5619,169.4708,7.57,85,80,3.59,NZ,1691132110
22,mount isa,-20.7333,139.5,26.87,28,1,4.12,AU,1691132176
23,codrington,-38.2667,141.9667,11.26,79,100,8.31,AU,1691132184
24,galliano,29.4422,-90.2992,28.0,78,3,2.48,US,1691132585
25,howrah,22.5892,88.3103,33.0,66,75,5.14,IN,1691132098
26,college,64.8569,-147.8028,23.99,53,75,0.0,US,1691132041
27,tofol,5.3248,163.0078,27.88,83,100,1.54,FM,1691132227
28,bilibino,68.0546,166.4372,10.26,97,100,0.45,RU,1691132038
29,iqaluit,63.7506,-68.5145,7.85,87,75,1.03,CA,1691132046
30,yumbe,3.4651,31.2469,22.94,73,86,2.7,UG,1691132587
31,fang,19.9169,99.2145,28.63,83,82,2.04,TH,1691132587
32,queenstown,-31.8976,26.8753,11.66,41,100,2.51,ZA,1691132168
33,aasiaat,68.7098,-52.8699,0.81,95,100,0.48,GL,1691132142
34,cabo san lucas,22.8909,-109.9124,30.84,71,70,2.24,MX,1691132223
35,vernon,50.2581,-119.2691,21.83,37,0,3.6,CA,1691132401
36,derzhavinsk,51.1,66.3167,27.84,41,10,5.58,KZ,1691132589
37,grande prairie,55.1667,-118.8027,12.1,94,0,1.54,CA,1691132423
38,grytviken,-54.2811,-36.5092,-6.14,70,16,3.01,GS,1691132036
39,thompson,55.7435,-97.8558,16.09,88,40,1.03,CA,1691132081
40,luganville,-15.5333,167.1667,21.08,94,100,2.52,VU,1691132478
41,waitangi,-43.9535,-176.5597,9.9,91,88,1.79,NZ,1691132051
42,san antonio de pale,-1.4014,5.6325,22.4,75,66,3.59,GQ,1691132192
43,yellowknife,62.456,-114.3525,18.29,72,75,1.03,CA,1691132054
44,saipan,15.1355,145.701,31.39,100,0,3.09,MP,1691132080
45,pacific grove,36.6177,-121.9166,15.69,89,100,3.09,US,1691132048
46,fortuna,40.5982,-124.1573,17.19,100,100,2.06,US,1691132061
47,valparaiso,-33.0393,-71.6273,15.0,66,100,1.54,CL,1691132418
48,kenai,60.5544,-151.2583,15.05,77,100,5.66,US,1691132270
49,longyearbyen,78.2186,15.6401,12.91,82,75,2.57,SJ,1691132093
50,belmonte,-15.8631,-38.8828,21.32,83,56,2.15,BR,1691132051
51,punta arenas,-53.15,-70.9167,-0.04,73,73,15.25,CL,1691132106
52,bredasdorp,-34.5322,20.0403,15.26,66,100,1.82,ZA,1691132076
53,san patricio,28.017,-97.5169,29.92,81,3,4.61,US,1691132040
54,nova sintra,14.8667,-24.7167,23.36,81,88,4.25,CV,1691132083
55,jamestown,42.097,-79.2353,21.77,94,0,1.54,US,1691132010
56,nguruka,-5.1092,31.0419,24.48,36,51,5.14,TZ,1691132598
57,minas de marcona,-15.2119,-75.1103,11.47,86,29,1.65,PE,1691132043
58,ushuaia,-54.8,-68.3,-1.19,100,100,9.77,AR,1691132056
59,fale old settlement,-9.3852,-171.2468,28.49,71,99,5.96,TK,1691132123
60,hermanus,-34.4187,19.2345,14.33,68,100,3.03,ZA,1691132031
61,uturoa,-16.7333,-151.4333,26.11,74,99,5.94,PF,1691132230
62,lebu,-37.6167,-73.65,6.33,70,1,7.31,CL,1691132045
63,nagqu,31.5,92.0,12.06,66,100,1.42,CN,1691132601
64,whitehorse,60.7161,-135.0538,20.43,54,40,2.57,CA,1691132059
65,iskateley,67.6803,53.1512,27.78,44,7,2.68,RU,1691132078
66,wailua homesteads,22.0669,-159.378,26.44,82,20,8.75,US,1691132045
67,frontera,26.9333,-101.45,27.84,52,0,3.52,MX,1691132603
68,klyuchi,52.2667,79.1667,31.77,31,21,2.5,RU,1691132117
69,palikir - national government center,6.9248,158.1611,28.67,74,13,3.97,FM,1691132604
70,hithadhoo,-0.6,73.0833,28.05,76,20,5.12,MV,1691132113
71,shingu,33.7333,135.9833,29.97,70,6,3.94,JP,1691132182
72,tsaratanana,-16.7833,47.65,24.54,57,16,9.65,MG,1691132605
73,new norfolk,-42.7826,147.0587,16.62,63,85,5.36,AU,1691132087
74,fort bragg,35.139,-79.006,23.91,80,100,1.54,US,1691131880
75,gigant,46.5066,41.3419,29.83,43,0,1.98,RU,1691132607
76,blackmans bay,-43.0167,147.3167,16.5,67,37,7.33,AU,1691132032
77,vorgashor,67.5833,63.95,27.6,44,0,2.26,RU,1691132008
78,puerto ayora,-0.7393,-90.3518,24.19,95,18,1.79,EC,1691132207
79,sinabang,2.4803,96.3801,29.07,70,93,1.47,ID,1691132112
80,rongelap,11.1635,166.8941,27.77,79,100,2.94,MH,1691132609
81,edinburgh of the seven seas,-37.0676,-12.3116,11.97,72,3,16.27,SH,1691132054
82,crane,31.3974,-102.3501,29.73,39,0,8.28,US,1691132090
83,sechura,-5.5569,-80.8222,21.49,78,4,5.13,PE,1691132611
84,natal,-5.795,-35.2094,21.12,94,0,3.09,BR,1691132455
85,atbasar,51.8,68.3333,27.32,44,3,3.99,KZ,1691132612
86,enewetak,11.3474,162.3373,28.57,77,55,5.54,MH,1691132122
87,puerto natales,-51.7236,-72.4875,1.98,82,47,9.2,CL,1691132035
88,mhamid,29.82,-5.72,33.3,9,0,2.98,MA,1691132613
89,bikenibeu village,1.3673,173.1241,29.98,74,75,2.06,KI,1691132089
90,wynyard,-41.0,145.7167,11.93,82,56,8.22,AU,1691132178
91,padangsidempuan,1.3667,99.2667,32.47,50,20,2.22,ID,1691132240
92,tiksi,71.6872,128.8694,4.14,94,100,2.04,RU,1691132143
93,gorontalo,0.5412,123.0595,30.66,65,75,4.39,ID,1691132615
94,albany,42.6001,-73.9662,19.74,83,100,0.45,US,1691132049
95,karratha,-20.7377,116.8463,26.76,51,0,3.11,AU,1691132212
96,tadine,-21.55,167.8833,18.82,87,100,10.43,NC,1691132228
97,port elizabeth,-33.918,25.5701,14.16,67,0,2.06,ZA,1691132108
98,antsiranana,-12.2787,49.2917,27.42,54,40,9.26,MG,1691132219
99,port alfred,-33.5906,26.891,21.77,37,48,3.13,ZA,1691132040
100,anadyr,64.75,177.4833,11.28,87,75,8.94,RU,1691132131
101,lorengau,-2.0226,147.2712,27.92,80,77,5.3,PG,1691132619
102,luderitz,-26.6481,15.1594,12.45,84,67,3.35,NA,1691132068
103,carnarvon,-24.8667,113.6333,20.7,42,0,7.96,AU,1691132134
104,aqsay,51.1678,52.995,30.03,36,13,3.53,KZ,1691132620
105,ataq,14.5377,46.8319,30.28,41,83,4.72,YE,1691132620
106,ghanzi,-21.5667,21.7833,14.1,47,5,7.02,BW,1691132621
107,kingston,17.997,-76.7936,28.53,90,20,3.09,JM,1691131924
108,paita,-5.0892,-81.1144,21.27,84,10,5.35,PE,1691132622
109,isafjordur,66.0755,-23.124,10.37,74,87,0.98,IS,1691132066
110,st. john's,47.5649,-52.7093,13.27,89,0,3.09,CA,1691131800
111,zhaobaoshan,29.9695,121.6875,29.01,91,49,7.67,CN,1691132623
112,balaklava,44.5,33.6,27.18,56,0,2.75,UA,1691132624
113,okhotsk,59.3833,143.3,21.96,41,100,2.03,RU,1691132154
114,xingcheng,40.6167,120.7167,30.12,81,100,6.01,CN,1691132625
115,sao paulo de olivenca,-3.3783,-68.8725,22.97,94,81,0.21,BR,1691132625
116,darwin,-12.4611,130.8418,28.99,56,75,6.17,AU,1691131955
117,khash,28.2211,61.2158,36.02,8,5,5.22,IR,1691132626
118,bayanhongor,46.7167,100.1167,21.76,38,100,3.88,MN,1691132120
119,rabaul,-4.1967,152.1721,26.72,80,100,6.36,PG,1691132627
120,jamaame,0.0697,42.745,28.85,55,38,7.32,SO,1691132628
121,nokha,27.6,73.4167,34.05,46,50,4.93,IN,1691132628
122,stanley,54.868,-1.6985,12.77,92,75,1.54,GB,1691132055
123,pulawy,51.4166,21.9694,21.51,57,94,4.13,PL,1691132629
124,badger,64.8,-147.5333,23.95,59,75,0.0,US,1691132065
125,loyew,51.9458,30.7953,23.48,63,3,2.25,BY,1691132630
126,invercargill,-46.4,168.35,6.68,96,77,0.89,NZ,1691132057
127,port lincoln,-34.7333,135.8667,12.93,61,48,7.25,AU,1691131830
128,praia da vitoria,38.7333,-27.0667,22.14,78,20,4.83,PT,1691132047
129,kugesi,56.029,47.2925,25.81,57,0,2.0,RU,1691132632
130,el calafate,-50.3408,-72.2768,0.11,69,2,7.62,AR,1691132632
131,point pedro,9.8167,80.2333,30.38,68,55,6.66,LK,1691132633
132,turpan,42.9333,89.1667,42.95,10,1,0.31,CN,1691132633
133,puerto leguizamo,-0.1934,-74.7819,22.07,95,98,0.57,CO,1691132634
134,belyy yar,53.6039,91.3903,20.94,88,20,2.0,RU,1691132635
135,bubaque,11.2833,-15.8333,26.55,76,100,1.18,GW,1691132220
136,fort st. john,56.2499,-120.8529,12.94,88,40,3.6,CA,1691132120
137,ribeira grande,38.5167,-28.7,22.1,83,20,2.57,PT,1691132636
138,virac,13.6333,124.2167,27.52,67,97,6.0,PH,1691132280
139,uliastay,47.7417,96.8444,22.47,43,90,3.59,MN,1691132637
140,talnakh,69.4865,88.3972,22.34,33,28,3.29,RU,1691132136
141,olonkinbyen,70.9221,-8.7187,4.19,94,100,9.65,SJ,1691132061
142,chibougamau,49.9168,-74.3659,13.79,100,100,4.12,CA,1691132147
143,archangelos,36.2149,28.1149,27.99,46,0,3.8,GR,1691132638
144,ilulissat,69.2167,-51.1,5.01,81,100,0.0,GL,1691132067
145,yuzhno-kurilsk,44.0306,145.8556,20.72,93,89,2.3,RU,1691132639
146,thomaston,32.8882,-84.3266,23.38,92,100,0.0,US,1691132592
147,holualoa,19.6228,-155.9522,22.5,85,51,1.79,US,1691132640
148,clinton,42.587,-82.9199,23.18,88,0,3.09,US,1691132640
149,garissa,-0.4536,39.6401,27.4,51,35,10.77,KE,1691132641
150,al ain city,24.1917,55.7606,40.79,22,12,5.66,AE,1691132500
151,vadso,70.0744,29.7487,20.49,77,0,4.63,NO,1691132085
152,kailua-kona,19.6406,-155.9956,26.98,85,20,2.06,US,1691132058
153,yurimaguas,-5.9,-76.0833,22.21,80,1,0.73,PE,1691132643
154,visby,57.6409,18.296,17.24,88,100,8.23,SE,1691132229
155,hawaiian paradise park,19.5933,-154.9731,24.73,85,20,3.09,US,1691132111
156,sint michiel liber,12.15,-68.9833,27.9,83,20,4.12,CW,1691132644
157,kapa'a,22.0752,-159.319,25.99,87,15,0.89,US,1691132644
158,metlili chaamba,32.2667,3.6333,29.52,17,0,0.0,DZ,1691132645
159,mwinilunga,-11.7358,24.4293,18.3,41,0,4.91,ZM,1691132645
160,bonnyville,54.2668,-110.735,13.89,80,0,3.81,CA,1691132421
161,alo,7.4178,6.7371,23.7,94,100,1.57,NG,1691132646
162,tazovsky,67.4667,78.7,21.05,52,9,1.94,RU,1691132076
163,selfoss,63.9331,-20.9971,8.36,89,96,2.29,IS,1691132646
164,afaahiti,-17.75,-149.2833,23.93,76,100,4.84,PF,1691132076
165,uttarkashi,30.7333,78.45,28.93,73,100,2.12,IN,1691132648
166,bankim,6.083,11.4905,19.81,97,100,0.44,CM,1691132649
167,juan griego,11.0817,-63.9655,26.21,86,3,3.72,VE,1691132649
168,sur,22.5667,59.5289,36.68,44,24,1.2,OM,1691132084
169,avarua,-21.2078,-159.775,22.03,83,75,3.6,CK,1691132650
170,salinopolis,-0.6136,-47.3561,25.69,86,9,3.21,BR,1691132650
171,yamada,39.4667,141.95,31.3,59,1,3.19,JP,1691132651
172,azul,-36.777,-59.8585,3.98,51,0,2.72,AR,1691132409
173,petropavlovsk-kamchatsky,53.0452,158.6483,19.33,60,75,2.0,RU,1691132088
174,n'zeto,-7.2312,12.8666,21.08,84,85,4.32,AO,1691132652
175,sisimiut,66.9395,-53.6735,5.61,89,84,0.9,GL,1691132196
176,margate,51.3813,1.3862,16.28,86,100,2.24,GB,1691132060
177,west island,-12.1568,96.8225,26.99,78,75,7.72,CC,1691132653
178,sola,-13.8833,167.55,23.37,88,100,5.14,VU,1691132092
179,kavaratti,10.5669,72.642,28.27,80,15,7.39,IN,1691132655
180,progreso,21.2833,-89.6667,26.06,86,100,1.94,MX,1691132655
181,lodja,-3.4833,23.4333,28.26,38,74,1.18,CD,1691132655
182,olyokminsk,60.3736,120.4264,28.44,25,8,4.67,RU,1691132209
183,al bawiti,28.3492,28.8659,31.45,23,0,2.65,EG,1691132656
184,barcelos,41.5388,-8.6151,16.62,72,0,2.63,PT,1691132553
185,saudarkrokur,65.7461,-19.6394,11.01,66,100,0.62,IS,1691132132
186,port mathurin,-19.6833,63.4167,23.22,74,41,10.35,MU,1691132066
187,wayne,42.2506,-83.2833,23.01,91,100,0.0,US,1691132657
188,ancud,-41.8697,-73.8203,5.08,84,72,2.03,CL,1691132143
189,mao,39.8885,4.2658,22.31,73,40,8.75,ES,1691132658
190,gizo,-8.103,156.8419,26.32,86,100,9.45,SB,1691132213
191,paranagua,-25.52,-48.5092,16.33,90,56,0.86,BR,1691132431
192,kundiawa,-6.0167,144.9667,19.53,95,83,1.15,PG,1691132660
193,al mutayrifi,25.4788,49.5576,43.19,7,0,8.76,SA,1691132539
194,ratnagiri,16.9833,73.3,27.8,81,100,7.24,IN,1691132661
195,altoona,40.5187,-78.3947,20.14,99,80,1.41,US,1691132661
196,illizi,26.4833,8.4667,30.89,12,0,7.29,DZ,1691132545
197,chum phae,16.5443,102.0992,26.53,83,100,1.73,TH,1691132662
198,la ronge,55.1001,-105.2842,19.14,88,20,3.6,CA,1691132167
199,egilsstadir,65.2653,-14.3948,6.95,87,75,1.03,IS,1691132663
200,tura,25.5198,90.2201,28.49,81,100,2.42,IN,1691132663
201,kuala tungkal,-0.8167,103.4667,28.63,81,100,3.11,ID,1691132664
202,flying fish cove,-10.4217,105.6791,25.82,88,100,6.69,CX,1691132244
203,lerwick,60.1545,-1.1494,11.0,74,100,7.42,GB,1691132664
204,iquitos,-3.7481,-73.2472,24.02,94,40,2.57,PE,1691132474
205,kabalo,-6.05,26.9167,26.87,36,16,5.23,CD,1691132665
206,zelenoborskiy,66.845,32.3622,13.54,97,100,3.81,RU,1691132666
207,timmins,48.4669,-81.3331,15.9,94,75,3.6,CA,1691132422
208,siwa oasis,29.2041,25.5195,33.8,22,0,4.46,EG,1691132666
209,bandarbeyla,9.4942,50.8122,31.04,43,100,15.41,SO,1691132198
210,bure,10.7,37.0667,18.19,84,87,1.59,ET,1691132667
211,kourou,5.1552,-52.6478,24.03,91,14,2.69,GF,1691132266
212,remire-montjoly,4.9167,-52.2667,24.02,94,0,0.0,GF,1691132668
213,gadani,25.1185,66.7299,30.12,74,97,6.14,PK,1691132668
214,keflavik,64.0049,-22.5624,10.24,93,75,4.12,IS,1691132669
215,tamanrasset,22.785,5.5228,24.95,27,0,2.06,DZ,1691132545
216,piacabucu,-10.4056,-36.4344,24.03,60,94,3.1,BR,1691132669
217,kalyazin,57.2403,37.8433,23.97,77,19,4.68,RU,1691132670
218,cloquet,46.7216,-92.4594,17.7,84,0,0.0,US,1691132670
219,vila franca do campo,37.7167,-25.4333,21.23,74,63,4.0,PT,1691132671
220,vilyuysk,63.7553,121.6247,26.23,28,100,4.31,RU,1691132072
221,kamaishi,39.2667,141.8833,29.8,66,13,3.79,JP,1691132135
222,dalbandin,28.8947,64.4101,40.91,6,3,2.93,PK,1691132672
223,arraial do cabo,-22.9661,-42.0278,20.56,92,0,6.86,BR,1691132115
224,dryden,49.7833,-92.7503,17.16,88,75,1.03,CA,1691132260
225,vilyuchinsk,52.9306,158.4028,20.15,75,48,4.08,RU,1691132673
226,rumoi,43.9344,141.6428,23.03,93,93,2.59,JP,1691132673
227,mar del plata,-38.0023,-57.5575,7.83,62,0,1.79,AR,1691132214
228,bako,5.7833,36.5667,22.37,55,74,1.46,ET,1691132674
229,cambria,35.5641,-121.0808,19.02,81,6,3.17,US,1691132674
230,inirida,3.8653,-67.9239,23.18,97,93,0.49,CO,1691132675
231,reggane,26.7158,0.1714,37.73,9,0,3.6,DZ,1691132159
232,grenada,37.1882,-3.6067,22.6,48,0,1.54,ES,1691132676
233,babu,24.4167,111.5167,35.08,55,43,0.85,CN,1691132676
234,udachny,66.4167,112.4,11.36,76,100,4.42,RU,1691132528
235,lata,40.1629,-8.3327,13.93,60,0,2.74,PT,1691132677
236,aktau,43.65,51.2,35.32,27,97,8.46,KZ,1691132678
237,agat village,13.3886,144.6585,30.52,87,20,5.14,GU,1691132678
238,zeya,53.75,127.2667,25.24,30,100,3.41,RU,1691132259
239,guerrero negro,27.9769,-114.0611,20.92,75,2,5.46,MX,1691132247
240,port saint john's,-31.6229,29.5448,19.65,34,5,2.17,ZA,1691132680
241,sambava,-14.2667,50.1667,23.48,81,69,7.02,MG,1691132680
242,cromer,52.9312,1.2989,15.95,93,97,4.47,GB,1691132681
243,puerto armuelles,8.2833,-82.8667,27.83,70,12,1.34,PA,1691132681
244,eastham,41.8301,-69.9739,20.01,84,0,1.54,US,1691132681
245,mil'kovo,55.6078,37.7956,26.73,63,1,4.83,RU,1691132682
246,bonthe,7.5264,-12.505,24.23,94,100,2.34,SL,1691132198
247,walterboro,32.9052,-80.6668,25.59,94,75,3.09,US,1691132682
248,mosjoen,65.836,13.1908,15.29,67,75,4.12,NO,1691132683
249,balabac,7.9868,117.0645,30.69,67,14,1.56,PH,1691132683
250,tolanaro,-25.0319,46.9987,22.04,60,40,6.17,MG,1691132684
251,oyama,36.3,139.8,35.75,29,17,2.25,JP,1691132684
252,kununurra,-15.7667,128.7333,32.99,29,75,3.09,AU,1691132684
253,brokopondo,4.75,-55.1667,24.96,88,18,1.96,SR,1691132685
254,prince rupert,54.3161,-130.3201,14.83,93,0,2.57,CA,1691132685
255,raduzhny,62.0961,77.475,29.56,30,4,3.96,RU,1691132686
256,nema,57.5067,50.5011,25.72,55,10,0.77,RU,1691132686
257,saint-pierre,-21.3393,55.4781,24.2,78,75,11.83,RE,1691132189
258,jieshi,22.8134,115.8257,31.05,74,98,9.87,CN,1691132687
259,qoryooley,1.7878,44.53,28.49,57,91,8.68,SO,1691132687
260,ponta delgada,37.7333,-25.6667,21.4,83,20,3.6,PT,1691132688
261,guixi,28.2886,117.2133,35.76,53,35,2.76,CN,1691132688
262,juruti,-2.1522,-56.0922,24.24,69,4,1.43,BR,1691132689
263,richards bay,-28.783,32.0377,18.89,59,0,6.57,ZA,1691132263
264,thunder bay,48.4001,-89.3168,15.99,94,0,1.03,CA,1691132468
265,east london,-33.0153,27.9116,22.4,33,7,2.96,ZA,1691132690
266,qaqortoq,60.7167,-46.0333,4.45,94,24,2.01,GL,1691132127
267,igarka,67.4667,86.5833,21.61,41,11,2.08,RU,1691132113
268,ta`u,-14.2336,-169.5144,26.81,74,5,5.73,AS,1691132156
269,lao cai,22.4833,103.95,35.55,56,36,1.09,VN,1691132691
270,sandnessjoen,66.0217,12.6316,16.29,94,75,5.14,NO,1691132263
271,tobol'sk,58.2,68.2667,22.01,75,97,1.86,RU,1691132692
272,gillette,44.2911,-105.5022,17.19,93,100,3.6,US,1691132522
273,solnechnyy,50.7214,136.6319,21.71,41,88,2.9,RU,1691132693
274,hovd,48.0056,91.6419,26.24,24,98,9.08,MN,1691132694
275,kapshagay,43.8833,77.0833,38.28,11,2,2.5,KZ,1691132694
276,hadibu,12.65,54.0333,28.06,66,100,14.05,YE,1691132235
277,tome acu,-2.4189,-48.1522,22.18,99,36,0.9,BR,1691132695
278,kyzyl-mazhalyk,51.1333,90.6,27.6,33,52,0.13,RU,1691132696
279,rio grande,-32.035,-52.0986,13.86,77,100,2.31,BR,1691132105
280,rikaze,29.25,88.8833,20.39,38,100,1.45,CN,1691132696
281,limassol,34.675,33.0333,31.04,47,0,2.06,CY,1691132591
282,meulaboh,4.1363,96.1285,29.88,67,77,2.75,ID,1691132697
283,anton lizardo,19.05,-95.9833,25.68,85,99,0.89,MX,1691132698
284,issia,6.4922,-6.5856,21.68,99,100,0.81,CI,1691132698
285,howard springs,-12.497,131.047,29.34,30,97,3.5,AU,1691132241
286,mumford,5.2618,-0.759,23.69,88,100,2.81,GH,1691132699
287,abepura,-2.6333,140.5833,25.45,78,20,1.03,ID,1691132700
288,flin flon,54.7682,-101.865,15.92,92,100,2.47,CA,1691132700
289,oriximina,-1.7656,-55.8661,23.93,71,1,1.11,BR,1691132701
290,mejit,10.2753,170.8646,28.56,78,76,6.1,MH,1691132141
291,vorkuta,67.5,64.0,27.77,44,1,2.15,RU,1691132111
292,perur,10.9667,76.9,31.83,55,40,7.72,IN,1691132702
293,at-bashi,41.1702,75.8106,28.13,19,2,2.51,KG,1691132704
294,pavlodar,52.3,76.95,28.89,39,40,3.0,KZ,1691132705
295,al jawf,29.5,38.75,32.6,16,0,5.23,SA,1691132538
296,juneau,58.3019,-134.4197,16.72,91,100,0.0,US,1691132707
297,vettaikkaranpudur,10.5667,76.9333,30.78,56,78,6.33,IN,1691132709
298,nikolayevsk-on-amure,53.1406,140.73,21.46,42,59,3.77,RU,1691132456
299,chonchi,-42.6128,-73.8092,5.07,93,76,1.1,CL,1691132710
300,touros,-5.1989,-35.4608,21.55,84,6,5.68,BR,1691132131
301,olonets,60.9847,32.9698,17.2,97,100,3.17,RU,1691132711
302,laojunmiao,39.8333,97.7333,30.95,13,28,4.98,CN,1691132145
303,fenghua,29.6563,121.4064,28.94,84,75,5.0,CN,1691132712
304,hamilton,39.1834,-84.5333,21.54,88,0,1.54,US,1691132712
305,calp,38.6447,0.0445,25.75,60,63,9.04,ES,1691132713
306,upata,8.0086,-62.3989,24.0,97,63,1.24,VE,1691132713
307,tsiombe,-25.3,45.4833,22.43,42,0,8.7,MG,1691132277
308,nieuw amsterdam,5.8833,-55.0833,26.12,86,10,2.7,SR,1691132142
309,mili,6.0815,171.735,28.13,78,100,7.14,MH,1691132169
310,wodonga,-36.1167,146.8833,17.2,100,100,1.72,AU,1691132715
311,priob'ye,62.5206,65.5964,28.71,43,55,4.07,RU,1691132715
312,jackson,42.4165,-122.8345,24.93,44,20,3.09,US,1691132684
313,kaiyuan,23.6977,103.3037,27.98,65,81,1.37,CN,1691132716
314,qui nhon,13.7667,109.2333,33.9,54,100,4.7,VN,1691132716
315,cape coast,5.1053,-1.2466,23.63,88,100,2.51,GH,1691132717
316,el nido,11.1858,119.3956,29.99,67,100,3.84,PH,1691132717
317,labuan,5.2767,115.2417,32.2,55,20,2.24,MY,1691132717
318,palmer,42.1584,-72.3287,19.65,62,100,3.09,US,1691132718
319,inhambane,-23.865,35.3833,18.99,93,75,0.0,MZ,1691132651
320,tiaret,35.371,1.317,19.69,40,0,1.03,DZ,1691132718
321,el charco,2.4769,-78.1105,24.42,95,38,1.04,CO,1691132719
322,gereida,11.2811,25.1414,26.21,71,100,4.18,SD,1691132719
323,kulhudhuffushi,6.6221,73.07,28.48,71,57,4.64,MV,1691132720
324,laguna paiva,-31.3039,-60.6589,12.77,81,6,1.79,AR,1691132720
325,i-n-salah,27.1935,2.4607,36.19,13,0,3.49,DZ,1691132721
326,mount gambier,-37.8333,140.7667,10.57,77,100,6.06,AU,1691132212
327,bereznik,62.8551,42.7072,25.21,56,43,3.68,RU,1691132721
328,hunchun,42.8675,130.3581,26.29,88,100,3.82,CN,1691132722
329,kavieng,-2.5744,150.7967,27.63,79,100,4.95,PG,1691132722
330,lazaro cardenas,17.9583,-102.2,24.78,87,100,2.31,MX,1691132443
331,behshahr,36.6923,53.5526,30.97,56,83,3.93,IR,1691132723
332,kargil,34.5667,76.1,22.36,31,13,0.69,IN,1691132473
333,leninskoye,41.7589,69.3864,35.63,11,0,3.8,KZ,1691132724
334,santa ana,33.7456,-117.8678,22.08,84,0,2.06,US,1691132724
335,nova vicosa,-17.8919,-39.3719,19.87,92,18,2.99,BR,1691132508
336,la passe,45.5549,-0.8967,17.21,79,29,6.14,FR,1691132725
337,byron bay,-28.65,153.6167,17.06,76,50,3.56,AU,1691132726
338,parabel',58.6978,81.4825,28.95,42,72,3.65,RU,1691132726
339,manokwari,-0.8667,134.0833,25.43,88,100,3.41,ID,1691132135
340,halifax,44.6453,-63.5724,13.94,95,38,0.51,CA,1691132705
341,liman,48.9884,37.8023,28.99,44,0,1.56,UA,1691132727
342,haiku-pauwela,20.9219,-156.3051,24.47,74,0,6.17,US,1691132162
343,bechar,31.6167,-2.2167,28.18,14,0,2.06,DZ,1691132728
344,lagunas,-5.2269,-75.6753,22.39,85,3,0.74,PE,1691132728
345,priozersk,61.0393,30.1291,18.7,82,98,3.71,RU,1691132729
346,santa cruz,-17.8,-63.1667,20.7,73,0,5.66,BO,1691132729
347,monterey,36.2505,-121.2516,12.87,1,0,2.68,US,1691132730
348,neryungri,56.6709,124.6491,21.84,39,6,1.74,RU,1691132730
349,dudinka,69.4058,86.1778,22.57,37,17,2.03,RU,1691132730
350,lihue,21.9789,-159.3672,26.77,76,20,8.75,US,1691132103
351,celestun,20.8667,-90.4,25.52,76,95,2.85,MX,1691132731
352,mohr,54.3528,9.7167,17.84,84,75,4.63,DE,1691132731
353,puerto deseado,-47.7503,-65.8938,6.61,56,9,8.67,AR,1691132732
354,katsuura,35.1333,140.3,29.16,75,9,8.07,JP,1691132732
355,khanty-mansiysk,61.0042,69.0019,22.06,88,0,3.0,RU,1691132733
356,condom,43.9167,0.3333,18.14,97,81,4.99,FR,1691132733
357,eldorado at santa fe,35.5264,-105.9347,23.82,26,20,4.63,US,1691132734
358,la sarre,48.8002,-79.1996,12.84,95,84,2.56,CA,1691132198
359,miramichi,47.0043,-65.4654,14.59,61,93,3.4,CA,1691132681
360,naze,28.3667,129.4833,28.51,89,100,9.83,JP,1691132735
361,mariinsk,56.2139,87.7472,28.3,42,100,3.14,RU,1691132735
362,boqueirao,-7.5,-36.1333,18.75,93,2,1.6,BR,1691132514
363,pop,40.8736,71.1089,34.27,11,2,2.97,UZ,1691132738
364,vrangel',42.7297,133.0839,19.28,87,100,8.79,RU,1691132738
365,broome,42.2506,-75.833,20.43,87,75,5.66,US,1691132738
366,haninge,59.1678,18.1448,17.64,92,100,0.89,SE,1691132739
367,yeniseysk,58.4497,92.1703,28.34,38,4,3.0,RU,1691132739
368,wanning,18.8003,110.3967,31.81,63,86,8.45,CN,1691132236
369,prince george,53.9166,-122.753,11.81,89,40,0.0,CA,1691132740
370,utrik,11.2278,169.8474,28.62,78,76,5.29,MH,1691132740
371,lisala,2.15,21.5167,22.16,95,100,0.71,CD,1691132741
372,forster,-32.1667,152.5167,17.99,78,49,7.09,AU,1691132742
373,benguela,-12.5763,13.4055,21.07,82,0,1.15,AO,1691132742
374,polyarnyy,69.1989,33.4478,21.23,66,100,8.67,RU,1691132743
375,alofi,-19.0595,-169.9187,21.94,94,100,4.12,NU,1691132223
376,kapuskasing,49.4169,-82.4331,16.05,94,100,4.63,CA,1691132543
377,tomatlan,19.9333,-105.25,25.31,93,100,1.35,MX,1691132744
378,bindki,26.0333,80.6,33.17,61,92,5.19,IN,1691132744
379,zaozersk,69.4005,32.4476,21.33,67,100,6.07,RU,1691132745
380,waldkappel,51.15,9.8833,16.84,89,100,1.39,DE,1691132745
381,ostersund,63.1792,14.6357,13.12,93,100,9.26,SE,1691132746
382,boksitogorsk,59.474,33.8485,18.67,96,100,2.83,RU,1691132746
383,nuuk,64.1835,-51.7216,4.93,100,50,2.24,GL,1691132272
384,dimitrovgrad,54.2139,49.6184,28.5,44,9,1.93,RU,1691132747
385,kerema,-7.9631,145.7785,25.32,81,100,4.52,PG,1691132747
386,salaga,8.5508,-0.5188,23.39,93,58,2.37,GH,1691132748
387,berezovyy,51.6667,135.7,23.24,38,74,3.7,RU,1691132182
388,hajin,34.6927,40.827,36.15,27,0,8.3,SY,1691132749
389,coquimbo,-29.9533,-71.3436,13.85,88,100,1.54,CL,1691132749
390,nacozari de garcia,30.3742,-109.6908,28.16,42,100,2.52,MX,1691132750
391,bulgan,48.8125,103.5347,23.94,55,100,1.46,MN,1691132750
392,praya,14.9215,-23.5087,26.3,83,75,5.66,CV,1691132751
393,xiuyan,40.2928,123.2744,29.59,86,100,3.31,CN,1691132751
394,chos malal,-37.3781,-70.2709,9.43,45,0,1.94,AR,1691132752
395,weno,7.4515,151.8468,28.9,75,100,4.65,FM,1691132752
396,shanhecun,44.7,127.2,25.86,95,100,5.05,CN,1691132753
397,ifrane,33.3333,-5.25,19.72,44,0,1.04,MA,1691132753
398,inari,68.906,27.0288,17.11,99,100,1.82,FI,1691132753
399,talara,-4.5772,-81.2719,21.49,84,66,7.09,PE,1691132754
400,noumea,-22.2763,166.4572,20.56,99,100,8.06,NC,1691132582
401,labytnangi,66.6572,66.4183,27.99,47,9,4.49,RU,1691132273
402,antofagasta,-23.65,-70.4,17.6,91,31,1.17,CL,1691132163
403,murghob,38.1702,73.9667,16.54,32,99,1.2,TJ,1691132756
404,qamdo,31.1667,97.2333,15.7,48,78,1.49,CN,1691132719
405,"laikit, laikit ii (dimembe)",1.4792,124.9735,31.47,58,40,2.57,ID,1691132757
406,point fortin,10.1833,-61.6833,25.5,79,2,3.46,TT,1691132757
407,grajau,-5.8194,-46.1386,23.44,57,0,1.44,BR,1691132758
408,amos,48.5669,-78.1162,10.92,98,17,2.14,CA,1691132520
409,daru,-9.0763,143.2092,25.88,73,13,6.97,PG,1691132759
410,kalevala,65.2,31.1667,17.65,95,100,3.46,RU,1691132759
411,madang,-5.2246,145.7966,27.93,77,34,3.55,PG,1691132759
412,cambridge,43.3601,-80.3127,19.21,90,40,1.54,CA,1691132634
413,el gouna,27.3942,33.6782,34.05,35,0,8.6,EG,1691132760
414,prince albert,53.2001,-105.7677,16.97,88,0,0.0,CA,1691132726
415,serdar,38.9764,56.2757,35.99,36,71,3.48,TM,1691132186
416,highland,34.1283,-117.2086,24.34,53,0,1.54,US,1691132642
417,khandyga,62.6667,135.6,26.14,28,1,2.0,RU,1691132763
418,rio preto da eva,-2.6994,-59.6997,22.07,94,13,0.94,BR,1691132763
419,iwanai,42.9744,140.5089,25.93,88,76,2.81,JP,1691132763
420,plattsmouth,41.0114,-95.8822,23.56,95,100,0.0,US,1691132764
421,westport,41.1415,-73.3579,23.38,78,75,6.69,US,1691132074
422,port moresby,-9.4431,147.1797,28.68,61,20,9.66,PG,1691132765
423,plastun,44.7561,136.2939,16.34,93,100,2.46,RU,1691132765
424,madimba,-10.4,40.3333,23.62,73,20,7.72,TZ,1691132765
425,kurchatov,51.6601,35.6521,25.23,55,3,3.05,RU,1691132766
426,kudahuvadhoo,2.6708,72.8944,28.31,68,100,1.43,MV,1691132766
427,tazacorte,28.629,-17.9293,25.08,63,40,6.17,ES,1691132767
428,ad dawadimi,24.5077,44.3924,36.64,10,17,6.65,SA,1691132767
429,petauke,-14.2426,31.3253,17.16,53,0,5.01,ZM,1691132767
430,kaa-khem,51.6833,94.7333,22.32,65,100,1.48,RU,1691132768
431,khalis,33.82,44.5264,40.76,17,0,7.61,IQ,1691132768
432,kuanda,56.3161,116.0806,25.82,34,23,2.8,RU,1691132769
433,al wajh,26.2455,36.4525,31.97,58,0,2.06,SA,1691132483
434,gorno-altaysk,51.9561,85.955,21.84,88,100,2.49,RU,1691132769
435,trujillo,-8.116,-79.03,20.98,88,100,2.57,PE,1691132770
436,sao vicente,-23.9631,-46.3919,20.55,26,21,1.94,BR,1691132770
437,slave lake,55.2834,-114.769,14.99,82,0,4.63,CA,1691132770
438,portland,45.5234,-122.6762,22.99,63,0,3.09,US,1691132139
439,le port,-20.9373,55.2919,24.98,91,26,2.33,RE,1691132771
440,dwarka,22.2394,68.9678,28.51,80,84,9.28,IN,1691132772
441,pyapon,16.2833,95.6833,31.49,63,88,8.02,MM,1691132773
442,smithers,54.7804,-127.1743,16.18,77,100,2.57,CA,1691132773
443,aioun,16.6614,-9.6149,30.64,52,0,6.55,MR,1691132260
444,buala,-8.145,159.5921,26.56,84,100,0.9,SB,1691132775
445,kilifi,-3.6305,39.8499,26.48,65,53,8.8,KE,1691132775
446,freeport,40.6576,-73.5832,23.14,74,100,5.66,US,1691132663
447,hino,35.6731,139.4003,36.32,45,0,5.81,JP,1691132776
448,akureyri,65.6835,-18.0878,5.96,93,75,1.03,IS,1691132674
449,millville,39.4021,-75.0393,21.66,78,100,0.0,US,1691132776
450,hasaki,35.7333,140.8333,36.28,75,21,9.45,JP,1691132777
451,sprockhovel,51.35,7.25,16.12,86,87,2.34,DE,1691132777
452,shimanovsk,52.0,127.7,25.94,26,100,3.84,RU,1691132778
453,huruta,8.15,39.35,19.37,71,14,2.16,ET,1691132778
454,las tablas,7.7667,-80.2833,26.76,99,95,3.42,PA,1691132779
455,wokha,26.1,94.2667,20.09,95,100,1.01,IN,1691132779
456,paradip garh,20.3167,86.6167,32.93,57,100,7.91,IN,1691132779
457,gamba,-2.65,10.0,21.33,80,20,3.41,GA,1691132780
458,suva,-18.1416,178.4415,22.71,73,75,4.12,FJ,1691132538
459,cockburn town,21.4612,-71.1419,28.62,77,100,6.45,TC,1691132781
460,torit,4.4133,32.5678,26.16,65,99,1.59,SS,1691132781
461,yenifakili,39.2114,35.0004,26.4,29,0,4.27,TR,1691132233
462,ballina,-28.8667,153.5667,17.1,73,41,3.17,AU,1691132497
463,hassi messaoud,31.6804,6.0729,31.92,18,0,1.54,DZ,1691132782
464,ad dilam,23.9915,47.1627,39.23,8,9,5.98,SA,1691132783
465,ketchikan,55.3422,-131.6461,14.99,82,0,0.0,US,1691132750
466,dalandzadgad,43.5708,104.425,31.36,21,3,4.51,MN,1691132783
467,namibe,-15.1961,12.1522,19.8,73,1,2.97,AO,1691132784
468,la'ie,21.6477,-157.9253,26.98,75,33,6.45,US,1691132785
469,olanchito,15.5,-86.5667,23.91,98,100,1.13,HN,1691132785
470,man,7.4125,-7.5538,22.25,100,97,0.59,CI,1691132785
471,aromashevo,56.8602,68.6375,23.39,70,91,1.95,RU,1691132786
472,san pedro,14.35,121.0167,31.81,74,40,7.2,PH,1691132786
473,langtoucun,40.0261,124.3286,28.32,83,100,5.08,CN,1691132787
474,kidal,18.4411,1.4078,31.75,35,52,4.26,ML,1691132234
475,muromtsevo,56.3724,75.2418,26.67,54,17,3.77,RU,1691132788
476,lompoc,34.6391,-120.4579,13.9,82,100,10.28,US,1691132788
477,winkler,49.1817,-97.941,16.12,82,100,1.03,CA,1691132542
478,maloye ganyushkino,46.6,49.2667,34.13,27,65,1.36,KZ,1691132789
479,almenara,-16.1836,-40.6944,16.64,97,1,0.26,BR,1691132790
480,ad dabbah,18.05,30.95,34.54,36,13,8.31,SD,1691132790
481,bethanie,-26.4833,17.15,16.36,23,50,1.77,NA,1691132791
482,dampit,-8.2116,112.7493,26.86,54,26,3.88,ID,1691132791
483,yinchuan,38.4681,106.2731,26.91,42,100,6.29,CN,1691132792
484,luau,-10.7073,22.2247,20.63,38,0,3.78,AO,1691132792
485,momlingen,49.8597,9.0833,17.44,93,100,0.58,DE,1691132793
486,nemuro,43.3236,145.575,19.89,90,35,7.01,JP,1691132793
487,klaksvik,62.2266,-6.589,9.51,83,100,6.02,FO,1691132794
488,acapulco de juarez,16.8634,-99.8901,25.9,89,75,3.6,MX,1691132794
489,heunghae,36.1125,129.3522,32.58,61,31,3.17,KR,1691132795
490,pico truncado,-46.7949,-67.9573,4.47,55,0,10.74,AR,1691132796
491,patacamaya,-17.2333,-67.9167,3.32,69,0,2.3,BO,1691132796
492,koungheul,13.9833,-14.8,26.07,88,74,2.21,SN,1691132797
493,aginskoye,51.1,114.53,25.86,22,100,3.43,RU,1691132797
494,greenville,35.6127,-77.3663,24.97,84,100,2.57,US,1691132727
495,malpura,26.2833,75.3833,31.82,57,86,3.9,IN,1691132798
496,nogliki,51.8333,143.1667,17.82,66,100,1.64,RU,1691132719
497,hutchinson,38.0608,-97.9298,24.85,88,0,4.63,US,1691132534
498,sidney,-33.8679,151.2073,22.69,63,0,6.69,AU,1691132655
499,sweetwater,25.7634,-80.3731,28.32,89,40,1.54,US,1691132799
500,awka,6.2101,7.0741,23.3,93,100,2.25,NG,1691132800
501,oranjemund,-28.55,16.4333,13.97,63,0,3.26,NA,1691132800
502,newman,37.3138,-121.0208,18.19,76,0,1.84,US,1691132800
503,illapel,-31.6308,-71.1653,16.9,51,39,0.66,CL,1691132771
504,hastings,50.8552,0.5729,16.86,34,98,4.81,GB,1691132801
505,leamington,42.0549,-82.6062,21.93,83,3,4.33,CA,1691132802
506,mota del cuervo,39.5101,-2.8738,17.43,49,0,8.38,ES,1691132802
507,yorkville,41.6411,-88.4473,22.15,95,100,1.59,US,1691132802
508,quellon,-43.1167,-73.6167,7.14,87,75,3.6,CL,1691132803
509,rijau,11.103,5.2507,23.67,85,33,2.02,NG,1691132804
510,van wert,40.8695,-84.5841,19.56,91,94,1.34,US,1691132804
511,bulawayo,-20.15,28.5833,11.77,57,2,4.59,ZW,1691132805
512,puerto santa,-8.9906,-78.6456,19.39,83,64,4.39,PE,1691132805
513,nizhnevartovsk,60.9344,76.5531,28.01,44,0,4.92,RU,1691132805
514,mirny,62.5353,113.9611,22.71,41,100,3.68,RU,1691132806
515,fukuecho,32.6881,128.8419,29.52,76,85,4.71,JP,1691132806
516,satu mare,47.8,22.8833,28.14,71,0,2.06,RO,1691132807
517,mangalia,43.8,28.5833,28.21,60,0,4.39,RO,1691132807
518,ivolginsk,51.7492,107.2837,21.81,68,40,3.0,RU,1691132807
519,bellmere,-27.0875,152.923,21.16,70,9,2.83,AU,1691132808
520,geraldton,-28.7667,114.6,17.23,55,0,7.2,AU,1691132808
521,zouerate,22.7187,-12.4521,26.87,29,67,6.73,MR,1691132809
522,ebon,4.582,168.6964,29.35,71,18,4.49,MH,1691132809
523,sinop,41.7711,34.8709,22.24,41,0,2.38,TR,1691132810
524,saint-leu,-21.15,55.2833,24.46,91,20,8.27,RE,1691132810
525,kristiansund,63.1115,7.732,13.36,88,75,3.6,NO,1691132810
526,sorong,-0.8833,131.25,27.18,81,100,1.94,ID,1691132811
527,bandon,51.7469,-8.7425,12.77,89,100,2.23,IE,1691132811
528,gangtok,27.3333,88.6167,21.24,93,100,1.67,IN,1691132812
529,bollullos par del condado,37.3413,-6.5397,23.71,28,1,2.86,ES,1691132812
530,beidao,34.5686,105.8933,34.06,34,30,0.95,CN,1691132813
531,smolenskoye,52.3044,85.0781,23.05,76,100,4.46,RU,1691132813
532,banda aceh,5.5577,95.3222,31.05,62,34,6.36,ID,1691132814
533,guarapari,-20.6667,-40.4975,18.83,75,0,4.27,BR,1691132814
534,gadzhiyevo,69.2551,33.3362,21.26,67,100,8.52,RU,1691132228
535,guaimaca,14.5333,-86.8167,19.45,98,100,0.86,HN,1691132815
536,geneina,13.45,22.45,23.01,78,100,1.91,SD,1691132816
537,christchurch,-43.5333,172.6333,8.11,76,98,3.09,NZ,1691132793
538,hammerfest,70.6634,23.6821,19.25,77,75,2.06,NO,1691132218
539,tuncurry,-32.1667,152.5,17.97,78,50,0.45,AU,1691132663
540,mandalgovi,45.7625,106.2708,27.02,32,11,2.05,MN,1691132817
541,tongliao,43.6125,122.2653,28.26,62,100,3.62,CN,1691132818
542,polewali,-3.4324,119.3435,28.99,75,74,2.03,ID,1691132818
543,saint-francois,46.4154,3.9054,14.69,94,100,5.14,FR,1691132819
544,correntina,-13.3433,-44.6367,18.91,56,17,0.73,BR,1691132819
545,amga,60.8953,131.9608,22.95,51,99,2.03,RU,1691132820
546,ciudad guadalupe victoria,24.4497,-104.1225,20.47,39,41,2.78,MX,1691132821
547,kruisfontein,-34.0033,24.7314,17.42,44,100,5.7,ZA,1691132821
548,toliara,-23.35,43.6667,24.78,45,0,4.44,MG,1691132261
549,sitka,57.0531,-135.33,15.94,77,20,1.54,US,1691132822
550,patong,7.8961,98.2966,30.08,74,59,6.0,TH,1691132823
551,san pelayo,8.9583,-75.8363,25.49,95,100,1.33,CO,1691132823
552,al jubayl,27.0112,49.6583,39.21,33,1,7.42,SA,1691132824
553,bridgewater,44.3835,-64.5155,8.95,95,70,0.83,CA,1691132824
554,paso de los toros,-32.8167,-56.5167,8.87,79,33,3.47,UY,1691132824
555,dhuusamarreeb,5.535,46.3861,29.43,42,34,11.45,SO,1691132825
556,redencao,-4.2258,-38.7306,21.17,95,24,1.5,BR,1691132825
557,punta del este,-34.9667,-54.95,7.71,80,0,2.06,UY,1691132529
558,mandera,3.9366,41.867,29.28,39,46,9.72,KE,1691132544
559,kill devil hills,36.0307,-75.676,25.55,70,100,2.57,US,1691132826
560,poyarkovo,49.6,128.6833,18.99,64,100,3.27,RU,1691132827
561,maragogi,-9.0122,-35.2225,22.71,69,34,3.3,BR,1691132827
562,porto novo,6.4965,2.6036,24.89,85,91,2.85,BJ,1691132828
563,georgetown,5.4112,100.3354,32.96,66,20,6.17,MY,1691132828
564,koungou,-12.7336,45.2042,28.84,65,40,6.69,YT,1691132829
565,higuera de zaragoza,25.95,-109.2833,30.83,63,99,2.39,MX,1691132829
566,tenkodogo,11.78,-0.3697,24.96,82,7,4.97,BF,1691132829
567,xinshi,31.047,113.141,34.56,61,5,3.63,CN,1691132830
568,lodeynoye pole,60.726,33.5531,17.36,98,100,2.94,RU,1691132830
569,papao,-17.75,-149.55,24.81,76,100,5.88,PF,1691132831
570,brookings,44.3114,-96.7984,21.7,92,0,0.0,US,1691132819
571,belozersk,60.0326,37.7957,21.41,90,83,4.66,RU,1691132832
572,leh,34.1667,77.5833,22.97,32,77,2.59,IN,1691132777
573,brisas de zicatela,15.8369,-97.0419,26.78,77,73,1.72,MX,1691132833
574,malyn,50.7723,29.2383,25.14,59,6,1.68,UA,1691132833
575,scarborough,54.2797,-0.4044,15.37,86,83,1.79,GB,1691132833
576,kimbe,-5.5502,150.1429,26.93,73,100,4.29,PG,1691132834
577,media luna,20.1419,-77.435,26.22,84,1,4.44,CU,1691132834
